{"businesses": [{"id": "ypqK8DWM8Bcs43YveSJnNw", "alias": "manhatta-new-york", "name": "Manhatta", "image_url": "https://s3-media3.fl.yelpcdn.com/bphoto/uHQHaX-Q6_Z0ptEGNFenIw/o.jpg", "is_closed": false, "url": "https://www.yelp.com/biz/manhatta-new-york?adjust_creative=-mjMIC8pz1J5l0LyFXMPyA&utm_campaign=yelp_api_v3&utm_medium=api_v3_business_search&utm_source=-mjMIC8pz1J5l0LyFXMPyA", "review_count": 751, "categories": [{"alias": "newamerican", "title": "New American"}], "rating": 4.4, "coordinates": {"latitude": 40.70800627689857, "longitude": -74.00888226517013}, "transactions": [], "price": "$$$$", "location": {"address1": "28 Liberty St", "address2": "Fl 60", "address3": null, "city": "New York", "zip_code": "10005", "country": "US", "state": "NY", "display_address": ["28 Liberty St", "Fl 60", "New York, NY 10005"]}, "phone": "+12122305788", "display_phone": "(212) 230-5788", "distance": 1262.2789968123395}, {"id": "1DfbZ0VsSCg9g1KILmnvzQ", "alias": "per-se-new-york", "name": "Per Se", "image_url": "https://s3-media2.fl.yelpcdn.com/bphoto/Jw6ZaMZRvdINhm1LR6grRg/o.jpg", "is_closed": false, "url": "https://www.yelp.com/biz/per-se-new-york?adjust_creative=-mjMIC8pz1J5l0LyFXMPyA&utm_campaign=yelp_api_v3&utm_medium=api_v3_business_search&utm_source=-mjMIC8pz1J5l0LyFXMPyA", "review_count": 1931, "categories": [{"alias": "french", "title": "French"}], "rating": 4.5, "coordinates": {"latitude": 40.7681528889558, "longitude": -73.9827629623657}, "transactions": [], "price": "$$$$", "location": {"address1": "10 Columbus Cir", "address2": "Fl 4", "address3": null, "city": "New York", "zip_code": "10019", "country": "US", "state": "NY", "display_address": ["10 Columbus Cir", "Fl 4", "New York, NY 10019"]}, "phone": "+12128239335", "display_phone": "(212) 823-9335", "distance": 7028.746060156897}, {"id": "vRrVSB-LegwUwIxpkeRVtQ", "alias": "le-bernardin-new-york", "name": "Le Bernardin", "image_url": "https://s3-media1.fl.yelpcdn.com/bphoto/Wtt4V5SIbCkNjR4nW1KOcw/o.jpg", "is_closed": false, "url": "https://www.yelp.com/biz/le-bernardin-new-york?adjust_creative=-mjMIC8pz1J5l0LyFXMPyA&utm_campaign=yelp_api_v3&utm_medium=api_v3_business_search&utm_source=-mjMIC8pz1J5l0LyFXMPyA", "review_count": 3048, "categories": [{"alias": "french", "title": "French"}, {"alias": "lounges", "title": "Lounges"}], "rating": 4.4, "coordinates": {"latitude": 40.761557, "longitude": -73.981763}, "transactions": [], "price": "$$$$", "location": {"address1": "155 W 51st St", "address2": "", "address3": "The Equitable Bldg", "city": "New York", "zip_code": "10019", "country": "US", "state": "NY", "display_address": ["155 W 51st St", "The Equitable Bldg", "New York, NY 10019"]}, "phone": "+12125541515", "display_phone": "(212) 554-1515", "distance": 6316.639756903092}, {"id": "VIg6EKndVDPtGNbeth41Rg", "alias": "rolos-ridgewood", "name": "Rolo's", "image_url": "https://s3-media1.fl.yelpcdn.com/bphoto/YxCyBZxwm2jWlodxCcNp8A/o.jpg", "is_closed": false, "url": "https://www.yelp.com/biz/rolos-ridgewood?adjust_creative=-mjMIC8pz1J5l0LyFXMPyA&utm_campaign=yelp_api_v3&utm_medium=api_v3_business_search&utm_source=-mjMIC8pz1J5l0LyFXMPyA", "review_count": 347, "categories": [{"alias": "sandwiches", "title": "Sandwiches"}, {"alias": "newamerican", "title": "New American"}, {"alias": "cocktailbars", "title": "Cocktail Bars"}], "rating": 4.4, "coordinates": {"latitude": 40.70195477148232, "longitude": -73.903537}, "transactions": [], "price": "$$$", "location": {"address1": "853 Onderdonk Ave", "address2": "", "address3": null, "city": "Ridgewood", "zip_code": "11385", "country": "US", "state": "NY", "display_address": ["853 Onderdonk Ave", "Ridgewood, NY 11385"]}, "phone": "+17184176567", "display_phone": "(718) 417-6567", "distance": 7658.266435925004}, {"id": "E48WbksxAk19a8vjJRVIVQ", "alias": "ramerino-italian-prime-new-york", "name": "Ramerino Italian Prime", "image_url": "https://s3-media2.fl.yelpcdn.com/bphoto/z8dD02Ff78hQfatQEM7M-Q/o.jpg", "is_closed": false, "url": "https://www.yelp.com/biz/ramerino-italian-prime-new-york?adjust_creative=-mjMIC8pz1J5l0LyFXMPyA&utm_campaign=yelp_api_v3&utm_medium=api_v3_business_search&utm_source=-mjMIC8pz1J5l0LyFXMPyA", "review_count": 121, "categories": [{"alias": "italian", "title": "Italian"}, {"alias": "wine_bars", "title": "Wine Bars"}, {"alias": "seafood", "title": "Seafood"}], "rating": 4.6, "coordinates": {"latitude": 40.75107, "longitude": -73.98135}, "transactions": ["restaurant_reservation"], "price": "$$$", "location": {"address1": "16 E 39th St", "address2": null, "address3": "", "city": "New York", "zip_code": "10016", "country": "US", "state": "NY", "display_address": ["16 E 39th St", "New York, NY 10016"]}, "phone": "+16468807885", "display_phone": "(646) 880-7885", "distance": 5164.521404584079}, {"id": "50fWXrNECQQYght4ZWeBXQ", "alias": "taureau-new-york", "name": "Taureau", "image_url": "https://s3-media3.fl.yelpcdn.com/bphoto/ythOaHs3h3O7LWbpZr0Cgw/o.jpg", "is_closed": false, "url": "https://www.yelp.com/biz/taureau-new-york?adjust_creative=-mjMIC8pz1J5l0LyFXMPyA&utm_campaign=yelp_api_v3&utm_medium=api_v3_business_search&utm_source=-mjMIC8pz1J5l0LyFXMPyA", "review_count": 611, "categories": [{"alias": "fondue", "title": "Fondue"}, {"alias": "french", "title": "French"}], "rating": 4.3, "coordinates": {"latitude": 40.724525, "longitude": -74.005652}, "transactions": [], "price": "$$$", "location": {"address1": "558 Broome St", "address2": "", "address3": "", "city": "New York", "zip_code": "10013", "country": "US", "state": "NY", "display_address": ["558 Broome St", "New York, NY 10013"]}, "phone": "+12122282222", "display_phone": "(212) 228-2222", "distance": 2320.087698391474}, {"id": "DEp-9JVnKN7eTb9A_mUlfA", "alias": "zou-zou-s-new-york-3", "name": "Zou Zou\u2019s", "image_url": "https://s3-media1.fl.yelpcdn.com/bphoto/JFsmaq8GfDlzJJecw_bLHw/o.jpg", "is_closed": false, "url": "https://www.yelp.com/biz/zou-zou-s-new-york-3?adjust_creative=-mjMIC8pz1J5l0LyFXMPyA&utm_campaign=yelp_api_v3&utm_medium=api_v3_business_search&utm_source=-mjMIC8pz1J5l0LyFXMPyA", "review_count": 406, "categories": [{"alias": "mediterranean", "title": "Mediterranean"}, {"alias": "cocktailbars", "title": "Cocktail Bars"}, {"alias": "newamerican", "title": "New American"}], "rating": 4.2, "coordinates": {"latitude": 40.75294111375021, "longitude": -73.99872428597398}, "transactions": [], "price": "$$$", "location": {"address1": "385 9th Ave", "address2": "Ste 85", "address3": null, "city": "New York", "zip_code": "10001", "country": "US", "state": "NY", "display_address": ["385 9th Ave", "Ste 85", "New York, NY 10001"]}, "phone": "+12123808585", "display_phone": "(212) 380-8585", "distance": 5283.556296484921}, {"id": "Exb6scc1mLuhsWrMLJqw9g", "alias": "sushi-lab-east-village-new-york", "name": "Sushi Lab - East Village", "image_url": "https://s3-media3.fl.yelpcdn.com/bphoto/9JzrkPciwTDnxwouMKFvdw/o.jpg", "is_closed": false, "url": "https://www.yelp.com/biz/sushi-lab-east-village-new-york?adjust_creative=-mjMIC8pz1J5l0LyFXMPyA&utm_campaign=yelp_api_v3&utm_medium=api_v3_business_search&utm_source=-mjMIC8pz1J5l0LyFXMPyA", "review_count": 101, "categories": [{"alias": "japanese", "title": "Japanese"}, {"alias": "sushi", "title": "Sushi Bars"}], "rating": 4.8, "coordinates": {"latitude": 40.729793874721146, "longitude": -73.9853292}, "transactions": [], "location": {"address1": "320 East 11th St", "address2": null, "address3": "", "city": "New York", "zip_code": "10003", "country": "US", "state": "NY", "display_address": ["320 East 11th St", "New York, NY 10003"]}, "phone": "+12126653737", "display_phone": "(212) 665-3737", "distance": 2799.4735236342244}, {"id": "diX-SHOYXgGzEEYMCLxaCw", "alias": "sixty-three-clinton-new-york", "name": "Sixty Three Clinton", "image_url": "https://s3-media1.fl.yelpcdn.com/bphoto/YKK_NAuoAMujHitgIbBang/o.jpg", "is_closed": false, "url": "https://www.yelp.com/biz/sixty-three-clinton-new-york?adjust_creative=-mjMIC8pz1J5l0LyFXMPyA&utm_campaign=yelp_api_v3&utm_medium=api_v3_business_search&utm_source=-mjMIC8pz1J5l0LyFXMPyA", "review_count": 171, "categories": [{"alias": "newamerican", "title": "New American"}, {"alias": "wine_bars", "title": "Wine Bars"}, {"alias": "cocktailbars", "title": "Cocktail Bars"}], "rating": 4.4, "coordinates": {"latitude": 40.71946, "longitude": -73.98498}, "transactions": [], "price": "$$$$", "location": {"address1": "63 Clinton St", "address2": "", "address3": null, "city": "New York", "zip_code": "10002", "country": "US", "state": "NY", "display_address": ["63 Clinton St", "New York, NY 10002"]}, "phone": "+19176636223", "display_phone": "(917) 663-6223", "distance": 1731.9965196799064}, {"id": "KFnr0CGsHQ2ABFHbLNtobQ", "alias": "central-park-conservancy-new-york", "name": "Central Park Conservancy", "image_url": "https://s3-media3.fl.yelpcdn.com/bphoto/wv113ohQGxwnQUrEyOHV_Q/o.jpg", "is_closed": false, "url": "https://www.yelp.com/biz/central-park-conservancy-new-york?adjust_creative=-mjMIC8pz1J5l0LyFXMPyA&utm_campaign=yelp_api_v3&utm_medium=api_v3_business_search&utm_source=-mjMIC8pz1J5l0LyFXMPyA", "review_count": 2730, "categories": [{"alias": "parks", "title": "Parks"}], "rating": 4.8, "coordinates": {"latitude": 40.764266, "longitude": -73.971656}, "transactions": [], "location": {"address1": "14 E 60th St", "address2": "", "address3": "", "city": "New York", "zip_code": "10022", "country": "US", "state": "NY", "display_address": ["14 E 60th St", "New York, NY 10022"]}, "phone": "+12123106600", "display_phone": "(212) 310-6600", "distance": 6803.129992848382}, {"id": "wSGZA3DOFSUvALZRKCM_Sw", "alias": "tanoshi-sushi-sake-bar-new-york", "name": "Tanoshi Sushi Sake Bar", "image_url": "https://s3-media3.fl.yelpcdn.com/bphoto/9Lq02-rtpaTJh_gnGfoSJw/o.jpg", "is_closed": false, "url": "https://www.yelp.com/biz/tanoshi-sushi-sake-bar-new-york?adjust_creative=-mjMIC8pz1J5l0LyFXMPyA&utm_campaign=yelp_api_v3&utm_medium=api_v3_business_search&utm_source=-mjMIC8pz1J5l0LyFXMPyA", "review_count": 913, "categories": [{"alias": "sushi", "title": "Sushi Bars"}, {"alias": "japanese", "title": "Japanese"}, {"alias": "seafood", "title": "Seafood"}], "rating": 4.4, "coordinates": {"latitude": 40.767568, "longitude": -73.952815}, "transactions": ["restaurant_reservation"], "price": "$$$$", "location": {"address1": "1372 York Ave", "address2": null, "address3": "", "city": "New York", "zip_code": "10021", "country": "US", "state": "NY", "display_address": ["1372 York Ave", "New York, NY 10021"]}, "phone": "+19172658254", "display_phone": "(917) 265-8254", "distance": 7730.366782005113}, {"id": "CfWe636m2CAUg4FAdl_zVQ", "alias": "ricardo-steak-house-new-york", "name": "Ricardo Steak House", "image_url": "https://s3-media2.fl.yelpcdn.com/bphoto/ijSkCgl789s7KcAxxEk0hQ/o.jpg", "is_closed": false, "url": "https://www.yelp.com/biz/ricardo-steak-house-new-york?adjust_creative=-mjMIC8pz1J5l0LyFXMPyA&utm_campaign=yelp_api_v3&utm_medium=api_v3_business_search&utm_source=-mjMIC8pz1J5l0LyFXMPyA", "review_count": 1593, "categories": [{"alias": "steak", "title": "Steakhouses"}, {"alias": "newamerican", "title": "New American"}, {"alias": "seafood", "title": "Seafood"}], "rating": 4.1, "coordinates": {"latitude": 40.793509, "longitude": -73.94066}, "transactions": [], "price": "$$$", "location": {"address1": "2145 2nd Ave", "address2": "", "address3": "", "city": "New York", "zip_code": "10029", "country": "US", "state": "NY", "display_address": ["2145 2nd Ave", "New York, NY 10029"]}, "phone": "+12122895895", "display_phone": "(212) 289-5895", "distance": 10773.074508617186}, {"id": "I8lfxFF6ZfwAYbWBIwRSsA", "alias": "the-thonglor-new-york-new-york", "name": "The Thonglor New York", "image_url": "https://s3-media3.fl.yelpcdn.com/bphoto/YyHht4zH6n9rzaSHX-9s_A/o.jpg", "is_closed": false, "url": "https://www.yelp.com/biz/the-thonglor-new-york-new-york?adjust_creative=-mjMIC8pz1J5l0LyFXMPyA&utm_campaign=yelp_api_v3&utm_medium=api_v3_business_search&utm_source=-mjMIC8pz1J5l0LyFXMPyA", "review_count": 193, "categories": [{"alias": "thai", "title": "Thai"}], "rating": 4.5, "coordinates": {"latitude": 40.76516, "longitude": -73.98795}, "transactions": ["delivery", "pickup"], "location": {"address1": "789 9th Ave", "address2": null, "address3": "", "city": "New York", "zip_code": "10019", "country": "US", "state": "NY", "display_address": ["789 9th Ave", "New York, NY 10019"]}, "phone": "+12125615692", "display_phone": "(212) 561-5692", "distance": 6655.3404994912635}, {"id": "9Ke2V1SJVOPyr4z3Bj4_IQ", "alias": "sky-55-bar-and-grill-new-york", "name": "Sky 55 Bar & Grill", "image_url": "https://s3-media3.fl.yelpcdn.com/bphoto/XOnn5PqzdxCtq4mO_oW3aw/o.jpg", "is_closed": false, "url": "https://www.yelp.com/biz/sky-55-bar-and-grill-new-york?adjust_creative=-mjMIC8pz1J5l0LyFXMPyA&utm_campaign=yelp_api_v3&utm_medium=api_v3_business_search&utm_source=-mjMIC8pz1J5l0LyFXMPyA", "review_count": 33, "categories": [{"alias": "bars", "title": "Bars"}, {"alias": "newamerican", "title": "New American"}], "rating": 4.3, "coordinates": {"latitude": 40.703234, "longitude": -74.008687}, "transactions": [], "price": "$$", "location": {"address1": "55 Water St", "address2": "Fl 3", "address3": "", "city": "New York", "zip_code": "10041", "country": "US", "state": "NY", "display_address": ["55 Water St", "Fl 3", "New York, NY 10041"]}, "phone": "+16465906556", "display_phone": "(646) 590-6556", "distance": 1242.7105128905557}, {"id": "ZJC4YEatJ1CK-m37rl7-MQ", "alias": "one-world-trade-center-new-york-4", "name": "One World Trade Center", "image_url": "https://s3-media2.fl.yelpcdn.com/bphoto/ne1LschrPM5oWVb29320eQ/o.jpg", "is_closed": false, "url": "https://www.yelp.com/biz/one-world-trade-center-new-york-4?adjust_creative=-mjMIC8pz1J5l0LyFXMPyA&utm_campaign=yelp_api_v3&utm_medium=api_v3_business_search&utm_source=-mjMIC8pz1J5l0LyFXMPyA", "review_count": 564, "categories": [{"alias": "landmarks", "title": "Landmarks & Historical Buildings"}, {"alias": "sharedofficespaces", "title": "Shared Office Spaces"}], "rating": 4.4, "coordinates": {"latitude": 40.71104306865282, "longitude": -74.01310222056239}, "transactions": [], "location": {"address1": "285 Fulton St", "address2": "", "address3": "", "city": "New York", "zip_code": "10007", "country": "US", "state": "NY", "display_address": ["285 Fulton St", "New York, NY 10007"]}, "phone": "+12122576600", "display_phone": "(212) 257-6600", "distance": 1701.5421614290194}, {"id": "quTCBKTDcP2MWRM8jqiAQg", "alias": "genesis-house-new-york-5", "name": "Genesis House", "image_url": "https://s3-media3.fl.yelpcdn.com/bphoto/Ex8g1tjXCrhJ5WVYR26Gmg/o.jpg", "is_closed": false, "url": "https://www.yelp.com/biz/genesis-house-new-york-5?adjust_creative=-mjMIC8pz1J5l0LyFXMPyA&utm_campaign=yelp_api_v3&utm_medium=api_v3_business_search&utm_source=-mjMIC8pz1J5l0LyFXMPyA", "review_count": 135, "categories": [{"alias": "korean", "title": "Korean"}], "rating": 4.2, "coordinates": {"latitude": 40.741502, "longitude": -74.008175}, "transactions": [], "location": {"address1": "40A 10th Ave", "address2": "", "address3": null, "city": "New York", "zip_code": "10014", "country": "US", "state": "NY", "display_address": ["40A 10th Ave", "New York, NY 10014"]}, "phone": "+18554440836", "display_phone": "(855) 444-0836", "distance": 4164.374132088647}, {"id": "Sb8HlVySjNAhbpiQxb5zpA", "alias": "altair-nyc-new-york-2", "name": "Altair NYC", "image_url": "https://s3-media4.fl.yelpcdn.com/bphoto/xnVXapX6pntcaJD-VKlYtA/o.jpg", "is_closed": false, "url": "https://www.yelp.com/biz/altair-nyc-new-york-2?adjust_creative=-mjMIC8pz1J5l0LyFXMPyA&utm_campaign=yelp_api_v3&utm_medium=api_v3_business_search&utm_source=-mjMIC8pz1J5l0LyFXMPyA", "review_count": 83, "categories": [{"alias": "newamerican", "title": "New American"}], "rating": 4.6, "coordinates": {"latitude": 40.755718, "longitude": -73.99373}, "transactions": [], "location": {"address1": "351 W 38th St", "address2": null, "address3": "", "city": "New York", "zip_code": "10018", "country": "US", "state": "NY", "display_address": ["351 W 38th St", "New York, NY 10018"]}, "phone": "+12123437000", "display_phone": "(212) 343-7000", "distance": 5572.361645509713}, {"id": "GyPQy9BlW5ajyWUFYsF4Wg", "alias": "principe-new-york-2", "name": "Principe", "image_url": "https://s3-media2.fl.yelpcdn.com/bphoto/yrpQI08t5E0-CyaUdF9z8w/o.jpg", "is_closed": false, "url": "https://www.yelp.com/biz/principe-new-york-2?adjust_creative=-mjMIC8pz1J5l0LyFXMPyA&utm_campaign=yelp_api_v3&utm_medium=api_v3_business_search&utm_source=-mjMIC8pz1J5l0LyFXMPyA", "review_count": 71, "categories": [{"alias": "seafood", "title": "Seafood"}, {"alias": "salad", "title": "Salad"}, {"alias": "pastashops", "title": "Pasta Shops"}], "rating": 4.2, "coordinates": {"latitude": 40.72611, "longitude": -74.00091808676727}, "transactions": [], "location": {"address1": "450 W Broadway", "address2": "", "address3": null, "city": "New York", "zip_code": "10012", "country": "US", "state": "NY", "display_address": ["450 W Broadway", "New York, NY 10012"]}, "phone": "+12123350509", "display_phone": "(212) 335-0509", "distance": 2354.4662601174978}, {"id": "UnB53OMX3CtEbEaTdtBNkQ", "alias": "swingers-crazy-golf-nomad-new-york-2", "name": "Swingers Crazy Golf - NoMad", "image_url": "https://s3-media2.fl.yelpcdn.com/bphoto/LmUSXc5gdrd0G2cRqaKYWA/o.jpg", "is_closed": false, "url": "https://www.yelp.com/biz/swingers-crazy-golf-nomad-new-york-2?adjust_creative=-mjMIC8pz1J5l0LyFXMPyA&utm_campaign=yelp_api_v3&utm_medium=api_v3_business_search&utm_source=-mjMIC8pz1J5l0LyFXMPyA", "review_count": 673, "categories": [{"alias": "mini_golf", "title": "Mini Golf"}, {"alias": "cocktailbars", "title": "Cocktail Bars"}, {"alias": "streetvendors", "title": "Street Vendors"}], "rating": 4.6, "coordinates": {"latitude": 40.74633, "longitude": -73.98902}, "transactions": [], "price": "$$", "location": {"address1": "35 W 29th St", "address2": null, "address3": "", "city": "New York", "zip_code": "10001", "country": "US", "state": "NY", "display_address": ["35 W 29th St", "New York, NY 10001"]}, "phone": "+16466613509", "display_phone": "(646) 661-3509", "distance": 4556.226459864123}, {"id": "3EGLeeckYSfYHD13rppsoQ", "alias": "hamburger-america-new-york", "name": "Hamburger America", "image_url": "https://s3-media2.fl.yelpcdn.com/bphoto/z11q5_-38X3L_G79SM--ig/o.jpg", "is_closed": false, "url": "https://www.yelp.com/biz/hamburger-america-new-york?adjust_creative=-mjMIC8pz1J5l0LyFXMPyA&utm_campaign=yelp_api_v3&utm_medium=api_v3_business_search&utm_source=-mjMIC8pz1J5l0LyFXMPyA", "review_count": 206, "categories": [{"alias": "burgers", "title": "Burgers"}, {"alias": "diners", "title": "Diners"}], "rating": 4.1, "coordinates": {"latitude": 40.72790439350822, "longitude": -74.00238296545326}, "transactions": [], "price": "$$", "location": {"address1": "51 MacDougal St", "address2": "", "address3": null, "city": "New York", "zip_code": "10012", "country": "US", "state": "NY", "display_address": ["51 MacDougal St", "New York, NY 10012"]}, "phone": "", "display_phone": "", "distance": 2578.6732051401877}], "total": 15000, "region": {"center": {"longitude": -73.99429321289062, "latitude": 40.70544486444615}}}